time (ms),sentence id,time (hhmmss),lat (deg),lat type,long (deg),long type,fix quality,satelites,HDOP,alt,alt unit,h above WGS84,h unit,,checksum
21834000,$GPGGA,060354,5220.010986,N,00924.813320,E,1,03,0.9,94.0,M,46.0,M,,*74
21834000,$GPGGA,060354,5220.010986,N,00924.813320,E,1,03,0.9,94.0,M,46.0,M,,*74
21835000,$GPGGA,060355,5220.010597,N,00924.817028,E,1,08,0.8,102.0,M,46.0,M,,*42
21835000,$GPGGA,060355,5220.010597,N,00924.817028,E,1,08,0.8,102.0,M,46.0,M,,*42
21836000,$GPGGA,060356,5220.011085,N,00924.817465,E,1,08,0.8,93.0,M,46.0,M,,*72
21836000,$GPGGA,060356,5220.011085,N,00924.817465,E,1,08,0.8,93.0,M,46.0,M,,*72
21837000,$GPGGA,060357,5220.012634,N,00924.816687,E,1,08,0.7,84.0,M,46.0,M,,*7A
21837000,$GPGGA,060357,5220.012634,N,00924.816687,E,1,08,0.7,84.0,M,46.0,M,,*7A
21838000,$GPGGA,060358,5220.011005,N,00924.817056,E,1,08,0.7,80.0,M,46.0,M,,*7D
21838000,$GPGGA,060358,5220.011005,N,00924.817056,E,1,08,0.7,80.0,M,46.0,M,,*7D
21839000,$GPGGA,060359,5220.010829,N,00924.818261,E,1,08,0.7,79.0,M,46.0,M,,*74
21839000,$GPGGA,060359,5220.010829,N,00924.818261,E,1,08,0.7,79.0,M,46.0,M,,*74
21840000,$GPGGA,060400,5220.011320,N,00924.819097,E,1,08,0.7,80.0,M,46.0,M,,*70
21840000,$GPGGA,060400,5220.011320,N,00924.819097,E,1,08,0.7,80.0,M,46.0,M,,*70
21841000,$GPGGA,060401,5220.011142,N,00924.818685,E,1,07,0.8,80.0,M,46.0,M,,*73
21841000,$GPGGA,060401,5220.011142,N,00924.818685,E,1,07,0.8,80.0,M,46.0,M,,*73
21842000,$GPGGA,060402,5220.011213,N,00924.817809,E,1,07,0.8,80.0,M,46.0,M,,*72
21842000,$GPGGA,060402,5220.011213,N,00924.817809,E,1,07,0.8,80.0,M,46.0,M,,*72
21843000,$GPGGA,060403,5220.011361,N,00924.817730,E,1,07,0.8,80.0,M,46.0,M,,*72
21843000,$GPGGA,060403,5220.011361,N,00924.817730,E,1,07,0.8,80.0,M,46.0,M,,*72
21844000,$GPGGA,060404,5220.011385,N,00924.817363,E,1,07,0.8,79.0,M,46.0,M,,*7B
21844000,$GPGGA,060404,5220.011385,N,00924.817363,E,1,07,0.8,79.0,M,46.0,M,,*7B
21845000,$GPGGA,060405,5220.011370,N,00924.817372,E,1,07,0.8,78.0,M,46.0,M,,*71
21845000,$GPGGA,060405,5220.011370,N,00924.817372,E,1,07,0.8,78.0,M,46.0,M,,*71
21846000,$GPGGA,060406,5220.011491,N,00924.817504,E,1,07,0.8,78.0,M,46.0,M,,*7D
21846000,$GPGGA,060406,5220.011491,N,00924.817504,E,1,07,0.8,78.0,M,46.0,M,,*7D
21847000,$GPGGA,060407,5220.011392,N,00924.817534,E,1,07,0.8,78.0,M,46.0,M,,*7B
21847000,$GPGGA,060407,5220.011392,N,00924.817534,E,1,07,0.8,78.0,M,46.0,M,,*7B
21848000,$GPGGA,060408,5220.011490,N,00924.817760,E,1,07,0.8,78.0,M,46.0,M,,*72
21848000,$GPGGA,060408,5220.011490,N,00924.817760,E,1,07,0.8,78.0,M,46.0,M,,*72
21849000,$GPGGA,060409,5220.011510,N,00924.817873,E,1,07,0.8,78.0,M,46.0,M,,*77
21849000,$GPGGA,060409,5220.011510,N,00924.817873,E,1,07,0.8,78.0,M,46.0,M,,*77
21850000,$GPGGA,060410,5220.011542,N,00924.817902,E,1,07,0.8,78.0,M,46.0,M,,*7F
21850000,$GPGGA,060410,5220.011542,N,00924.817902,E,1,07,0.8,78.0,M,46.0,M,,*7F
21851000,$GPGGA,060411,5220.011550,N,00924.817880,E,1,07,0.8,78.0,M,46.0,M,,*76
21851000,$GPGGA,060411,5220.011550,N,00924.817880,E,1,07,0.8,78.0,M,46.0,M,,*76
21852000,$GPGGA,060412,5220.011550,N,00924.817885,E,1,08,0.8,78.0,M,46.0,M,,*7F
21852000,$GPGGA,060412,5220.011550,N,00924.817885,E,1,08,0.8,78.0,M,46.0,M,,*7F
21853000,$GPGGA,060413,5220.011550,N,00924.817892,E,1,07,0.8,78.0,M,46.0,M,,*77
21853000,$GPGGA,060413,5220.011550,N,00924.817892,E,1,07,0.8,78.0,M,46.0,M,,*77
21854000,$GPGGA,060414,5220.011553,N,00924.817900,E,1,06,0.8,78.0,M,46.0,M,,*78
21854000,$GPGGA,060414,5220.011553,N,00924.817900,E,1,06,0.8,78.0,M,46.0,M,,*78
21855000,$GPGGA,060415,5220.011555,N,00924.817918,E,1,07,0.8,78.0,M,46.0,M,,*77
21855000,$GPGGA,060415,5220.011555,N,00924.817918,E,1,07,0.8,78.0,M,46.0,M,,*77
21856000,$GPGGA,060416,5220.011558,N,00924.817947,E,1,07,0.7,78.0,M,46.0,M,,*7C
21856000,$GPGGA,060416,5220.011558,N,00924.817947,E,1,07,0.7,78.0,M,46.0,M,,*7C
21857000,$GPGGA,060417,5220.011562,N,00924.817973,E,1,07,0.7,78.0,M,46.0,M,,*73
21857000,$GPGGA,060417,5220.011562,N,00924.817973,E,1,07,0.7,78.0,M,46.0,M,,*73
21858000,$GPGGA,060418,5220.011561,N,00924.818002,E,1,08,0.7,78.0,M,46.0,M,,*70
21858000,$GPGGA,060418,5220.011561,N,00924.818002,E,1,08,0.7,78.0,M,46.0,M,,*70
21859000,$GPGGA,060419,5220.011559,N,00924.818036,E,1,08,0.7,78.0,M,46.0,M,,*7D
21859000,$GPGGA,060419,5220.011559,N,00924.818036,E,1,08,0.7,78.0,M,46.0,M,,*7D
21860000,$GPGGA,060420,5220.011563,N,00924.818050,E,1,08,0.7,78.0,M,46.0,M,,*7E
21860000,$GPGGA,060420,5220.011563,N,00924.818050,E,1,08,0.7,78.0,M,46.0,M,,*7E
21861000,$GPGGA,060421,5220.011723,N,00924.818260,E,1,08,0.7,78.0,M,46.0,M,,*78
21861000,$GPGGA,060421,5220.011723,N,00924.818260,E,1,08,0.7,78.0,M,46.0,M,,*78
21862000,$GPGGA,060422,5220.011624,N,00924.818984,E,1,08,0.7,78.0,M,46.0,M,,*7C
21862000,$GPGGA,060422,5220.011624,N,00924.818984,E,1,08,0.7,78.0,M,46.0,M,,*7C
21863000,$GPGGA,060423,5220.011823,N,00924.819553,E,1,08,0.7,78.0,M,46.0,M,,*73
21863000,$GPGGA,060423,5220.011823,N,00924.819553,E,1,08,0.7,78.0,M,46.0,M,,*73
21864000,$GPGGA,060424,5220.011931,N,00924.820876,E,1,08,0.7,77.0,M,46.0,M,,*79
21864000,$GPGGA,060424,5220.011931,N,00924.820876,E,1,08,0.7,77.0,M,46.0,M,,*79
21865000,$GPGGA,060425,5220.012413,N,00924.822459,E,1,08,0.7,78.0,M,46.0,M,,*7A
21865000,$GPGGA,060425,5220.012413,N,00924.822459,E,1,08,0.7,78.0,M,46.0,M,,*7A
21866000,$GPGGA,060426,5220.013220,N,00924.823862,E,1,08,0.7,77.0,M,46.0,M,,*74
21866000,$GPGGA,060426,5220.013220,N,00924.823862,E,1,08,0.7,77.0,M,46.0,M,,*74
21867000,$GPGGA,060427,5220.014610,N,00924.824563,E,1,08,0.7,77.0,M,46.0,M,,*7E
21867000,$GPGGA,060427,5220.014610,N,00924.824563,E,1,08,0.7,77.0,M,46.0,M,,*7E
21868000,$GPGGA,060428,5220.016275,N,00924.825587,E,1,08,0.7,77.0,M,46.0,M,,*7F
21868000,$GPGGA,060428,5220.016275,N,00924.825587,E,1,08,0.7,77.0,M,46.0,M,,*7F
21869000,$GPGGA,060429,5220.017642,N,00924.826433,E,1,08,0.7,76.0,M,46.0,M,,*73
21869000,$GPGGA,060429,5220.017642,N,00924.826433,E,1,08,0.7,76.0,M,46.0,M,,*73
21870000,$GPGGA,060430,5220.019301,N,00924.827268,E,1,07,0.8,76.0,M,46.0,M,,*7E
21870000,$GPGGA,060430,5220.019301,N,00924.827268,E,1,07,0.8,76.0,M,46.0,M,,*7E
21871000,$GPGGA,060431,5220.020758,N,00924.828596,E,1,08,0.7,76.0,M,46.0,M,,*74
21871000,$GPGGA,060431,5220.020758,N,00924.828596,E,1,08,0.7,76.0,M,46.0,M,,*74
21872000,$GPGGA,060432,5220.022453,N,00924.829753,E,1,08,0.7,76.0,M,46.0,M,,*77
21872000,$GPGGA,060432,5220.022453,N,00924.829753,E,1,08,0.7,76.0,M,46.0,M,,*77
21873000,$GPGGA,060433,5220.023727,N,00924.830554,E,1,08,0.7,75.0,M,46.0,M,,*79
21873000,$GPGGA,060433,5220.023727,N,00924.830554,E,1,08,0.7,75.0,M,46.0,M,,*79
21874000,$GPGGA,060434,5220.024869,N,00924.831274,E,1,09,0.7,76.0,M,46.0,M,,*7A
21874000,$GPGGA,060434,5220.024869,N,00924.831274,E,1,09,0.7,76.0,M,46.0,M,,*7A
21875000,$GPGGA,060435,5220.025887,N,00924.831949,E,1,09,0.8,75.0,M,46.0,M,,*73
21875000,$GPGGA,060435,5220.025887,N,00924.831949,E,1,09,0.8,75.0,M,46.0,M,,*73
21876000,$GPGGA,060436,5220.027386,N,00924.833194,E,1,09,0.8,75.0,M,46.0,M,,*72
21876000,$GPGGA,060436,5220.027386,N,00924.833194,E,1,09,0.8,75.0,M,46.0,M,,*72
21877000,$GPGGA,060437,5220.029264,N,00924.834147,E,1,08,0.7,75.0,M,46.0,M,,*77
21877000,$GPGGA,060437,5220.029264,N,00924.834147,E,1,08,0.7,75.0,M,46.0,M,,*77
21878000,$GPGGA,060438,5220.030679,N,00924.834608,E,1,08,0.7,76.0,M,46.0,M,,*77
21878000,$GPGGA,060438,5220.030679,N,00924.834608,E,1,08,0.7,76.0,M,46.0,M,,*77
21879000,$GPGGA,060439,5220.031490,N,00924.834773,E,1,08,0.7,76.0,M,46.0,M,,*7F
21879000,$GPGGA,060439,5220.031490,N,00924.834773,E,1,08,0.7,76.0,M,46.0,M,,*7F
21880000,$GPGGA,060440,5220.031800,N,00924.834482,E,1,08,0.7,76.0,M,46.0,M,,*79
21880000,$GPGGA,060440,5220.031800,N,00924.834482,E,1,08,0.7,76.0,M,46.0,M,,*79
21881000,$GPGGA,060441,5220.031753,N,00924.834441,E,1,08,0.7,75.0,M,46.0,M,,*7D
21881000,$GPGGA,060441,5220.031753,N,00924.834441,E,1,08,0.7,75.0,M,46.0,M,,*7D
21882000,$GPGGA,060442,5220.031659,N,00924.834479,E,1,08,0.7,75.0,M,46.0,M,,*7E
21882000,$GPGGA,060442,5220.031659,N,00924.834479,E,1,08,0.7,75.0,M,46.0,M,,*7E
21883000,$GPGGA,060443,5220.031637,N,00924.834568,E,1,08,0.7,75.0,M,46.0,M,,*76
21883000,$GPGGA,060443,5220.031637,N,00924.834568,E,1,08,0.7,75.0,M,46.0,M,,*76
21884000,$GPGGA,060444,5220.032307,N,00924.834131,E,1,08,0.7,76.0,M,46.0,M,,*7F
21884000,$GPGGA,060444,5220.032307,N,00924.834131,E,1,08,0.7,76.0,M,46.0,M,,*7F
21885000,$GPGGA,060445,5220.033560,N,00924.832849,E,1,08,0.7,76.0,M,46.0,M,,*78
21885000,$GPGGA,060445,5220.033560,N,00924.832849,E,1,08,0.7,76.0,M,46.0,M,,*78
21886000,$GPGGA,060446,5220.034491,N,00924.830047,E,1,08,0.7,76.0,M,46.0,M,,*77
21886000,$GPGGA,060446,5220.034491,N,00924.830047,E,1,08,0.7,76.0,M,46.0,M,,*77
21887000,$GPGGA,060447,5220.034904,N,00924.826565,E,1,07,0.8,77.0,M,46.0,M,,*74
21887000,$GPGGA,060447,5220.034904,N,00924.826565,E,1,07,0.8,77.0,M,46.0,M,,*74
21888000,$GPGGA,060448,5220.034569,N,00924.821960,E,1,07,0.8,77.0,M,46.0,M,,*72
21888000,$GPGGA,060448,5220.034569,N,00924.821960,E,1,07,0.8,77.0,M,46.0,M,,*72
21889000,$GPGGA,060449,5220.034173,N,00924.816479,E,1,08,0.7,77.0,M,46.0,M,,*7D
21889000,$GPGGA,060449,5220.034173,N,00924.816479,E,1,08,0.7,77.0,M,46.0,M,,*7D
21890000,$GPGGA,060450,5220.033676,N,00924.810239,E,1,08,0.7,78.0,M,46.0,M,,*7B
21890000,$GPGGA,060450,5220.033676,N,00924.810239,E,1,08,0.7,78.0,M,46.0,M,,*7B
21891000,$GPGGA,060451,5220.033226,N,00924.804039,E,1,08,0.7,78.0,M,46.0,M,,*7C
21891000,$GPGGA,060451,5220.033226,N,00924.804039,E,1,08,0.7,78.0,M,46.0,M,,*7C
21892000,$GPGGA,060452,5220.032841,N,00924.797766,E,1,08,0.7,78.0,M,46.0,M,,*7D
21892000,$GPGGA,060452,5220.032841,N,00924.797766,E,1,08,0.7,78.0,M,46.0,M,,*7D
21893000,$GPGGA,060453,5220.032263,N,00924.791213,E,1,08,0.7,78.0,M,46.0,M,,*77
21893000,$GPGGA,060453,5220.032263,N,00924.791213,E,1,08,0.7,78.0,M,46.0,M,,*77
21894000,$GPGGA,060454,5220.031403,N,00924.785199,E,1,08,0.7,78.0,M,46.0,M,,*77
21894000,$GPGGA,060454,5220.031403,N,00924.785199,E,1,08,0.7,78.0,M,46.0,M,,*77
21895000,$GPGGA,060455,5220.029526,N,00924.780011,E,1,09,0.7,78.0,M,46.0,M,,*7C
21895000,$GPGGA,060455,5220.029526,N,00924.780011,E,1,09,0.7,78.0,M,46.0,M,,*7C
21896000,$GPGGA,060456,5220.026356,N,00924.775750,E,1,08,0.7,78.0,M,46.0,M,,*78
21896000,$GPGGA,060456,5220.026356,N,00924.775750,E,1,08,0.7,78.0,M,46.0,M,,*78
21897000,$GPGGA,060457,5220.022203,N,00924.772617,E,1,09,0.7,78.0,M,46.0,M,,*78
21897000,$GPGGA,060457,5220.022203,N,00924.772617,E,1,09,0.7,78.0,M,46.0,M,,*78
21898000,$GPGGA,060458,5220.017999,N,00924.770831,E,1,08,0.7,78.0,M,46.0,M,,*70
21898000,$GPGGA,060458,5220.017999,N,00924.770831,E,1,08,0.7,78.0,M,46.0,M,,*70
21899000,$GPGGA,060459,5220.014169,N,00924.769858,E,1,08,0.7,78.0,M,46.0,M,,*72
21899000,$GPGGA,060459,5220.014169,N,00924.769858,E,1,08,0.7,78.0,M,46.0,M,,*72
21900000,$GPGGA,060500,5220.011085,N,00924.769060,E,1,09,0.7,79.0,M,46.0,M,,*7A
21900000,$GPGGA,060500,5220.011085,N,00924.769060,E,1,09,0.7,79.0,M,46.0,M,,*7A
21901000,$GPGGA,060501,5220.008951,N,00924.768355,E,1,09,0.7,79.0,M,46.0,M,,*77
21901000,$GPGGA,060501,5220.008951,N,00924.768355,E,1,09,0.7,79.0,M,46.0,M,,*77
21902000,$GPGGA,060502,5220.007512,N,00924.767512,E,1,09,0.7,79.0,M,46.0,M,,*7A
21902000,$GPGGA,060502,5220.007512,N,00924.767512,E,1,09,0.7,79.0,M,46.0,M,,*7A
21903000,$GPGGA,060503,5220.006791,N,00924.767164,E,1,09,0.7,79.0,M,46.0,M,,*76
21903000,$GPGGA,060503,5220.006791,N,00924.767164,E,1,09,0.7,79.0,M,46.0,M,,*76
21904000,$GPGGA,060504,5220.006503,N,00924.767188,E,1,09,0.7,79.0,M,46.0,M,,*7A
21904000,$GPGGA,060504,5220.006503,N,00924.767188,E,1,09,0.7,79.0,M,46.0,M,,*7A
21905000,$GPGGA,060505,5220.006387,N,00924.766900,E,1,09,0.7,79.0,M,46.0,M,,*78
21905000,$GPGGA,060505,5220.006387,N,00924.766900,E,1,09,0.7,79.0,M,46.0,M,,*78
21906000,$GPGGA,060506,5220.006398,N,00924.766375,E,1,09,0.7,80.0,M,46.0,M,,*7B
21906000,$GPGGA,060506,5220.006398,N,00924.766375,E,1,09,0.7,80.0,M,46.0,M,,*7B
21907000,$GPGGA,060507,5220.006363,N,00924.766367,E,1,08,0.8,80.0,M,46.0,M,,*73
21907000,$GPGGA,060507,5220.006363,N,00924.766367,E,1,08,0.8,80.0,M,46.0,M,,*73
21908000,$GPGGA,060508,5220.006319,N,00924.765970,E,1,08,0.8,80.0,M,46.0,M,,*7E
21908000,$GPGGA,060508,5220.006319,N,00924.765970,E,1,08,0.8,80.0,M,46.0,M,,*7E
21909000,$GPGGA,060509,5220.006366,N,00924.765619,E,1,07,0.8,80.0,M,46.0,M,,*78
21909000,$GPGGA,060509,5220.006366,N,00924.765619,E,1,07,0.8,80.0,M,46.0,M,,*78
21910000,$GPGGA,060510,5220.006461,N,00924.765452,E,1,07,0.8,80.0,M,46.0,M,,*7D
21910000,$GPGGA,060510,5220.006461,N,00924.765452,E,1,07,0.8,80.0,M,46.0,M,,*7D
21911000,$GPGGA,060511,5220.006456,N,00924.765171,E,1,07,0.8,80.0,M,46.0,M,,*7C
21911000,$GPGGA,060511,5220.006456,N,00924.765171,E,1,07,0.8,80.0,M,46.0,M,,*7C
21912000,$GPGGA,060512,5220.006525,N,00924.765047,E,1,08,0.8,80.0,M,46.0,M,,*71
21912000,$GPGGA,060512,5220.006525,N,00924.765047,E,1,08,0.8,80.0,M,46.0,M,,*71
21913000,$GPGGA,060513,5220.006488,N,00924.765078,E,1,07,0.8,80.0,M,46.0,M,,*75
21913000,$GPGGA,060513,5220.006488,N,00924.765078,E,1,07,0.8,80.0,M,46.0,M,,*75
21914000,$GPGGA,060514,5220.006481,N,00924.765107,E,1,07,0.8,79.0,M,46.0,M,,*74
21914000,$GPGGA,060514,5220.006481,N,00924.765107,E,1,07,0.8,79.0,M,46.0,M,,*74
21915000,$GPGGA,060515,5220.006479,N,00924.765116,E,1,07,0.8,79.0,M,46.0,M,,*72
21915000,$GPGGA,060515,5220.006479,N,00924.765116,E,1,07,0.8,79.0,M,46.0,M,,*72
21916000,$GPGGA,060516,5220.006111,N,00924.765138,E,1,08,0.7,79.0,M,46.0,M,,*76
21916000,$GPGGA,060516,5220.006111,N,00924.765138,E,1,08,0.7,79.0,M,46.0,M,,*76
21917000,$GPGGA,060517,5220.004469,N,00924.764230,E,1,09,0.7,79.0,M,46.0,M,,*74
21917000,$GPGGA,060517,5220.004469,N,00924.764230,E,1,09,0.7,79.0,M,46.0,M,,*74
21918000,$GPGGA,060518,5220.002462,N,00924.760833,E,1,09,0.7,78.0,M,46.0,M,,*7A
21918000,$GPGGA,060518,5220.002462,N,00924.760833,E,1,09,0.7,78.0,M,46.0,M,,*7A
21919000,$GPGGA,060519,5220.001953,N,00924.755728,E,1,09,0.7,78.0,M,46.0,M,,*74
21919000,$GPGGA,060519,5220.001953,N,00924.755728,E,1,09,0.7,78.0,M,46.0,M,,*74
21920000,$GPGGA,060520,5220.003279,N,00924.750146,E,1,09,0.7,78.0,M,46.0,M,,*74
21920000,$GPGGA,060520,5220.003279,N,00924.750146,E,1,09,0.7,78.0,M,46.0,M,,*74
21921000,$GPGGA,060521,5220.005871,N,00924.743800,E,1,09,0.7,78.0,M,46.0,M,,*78
21921000,$GPGGA,060521,5220.005871,N,00924.743800,E,1,09,0.7,78.0,M,46.0,M,,*78
21922000,$GPGGA,060522,5220.008900,N,00924.735929,E,1,09,0.7,78.0,M,46.0,M,,*7A
21922000,$GPGGA,060522,5220.008900,N,00924.735929,E,1,09,0.7,78.0,M,46.0,M,,*7A
21923000,$GPGGA,060523,5220.012147,N,00924.727523,E,1,09,0.7,78.0,M,46.0,M,,*7E
21923000,$GPGGA,060523,5220.012147,N,00924.727523,E,1,09,0.7,78.0,M,46.0,M,,*7E
21924000,$GPGGA,060524,5220.015531,N,00924.718086,E,1,09,0.7,78.0,M,46.0,M,,*7D
21924000,$GPGGA,060524,5220.015531,N,00924.718086,E,1,09,0.7,78.0,M,46.0,M,,*7D
21925000,$GPGGA,060525,5220.019128,N,00924.707756,E,1,09,0.7,78.0,M,46.0,M,,*78
21925000,$GPGGA,060525,5220.019128,N,00924.707756,E,1,09,0.7,78.0,M,46.0,M,,*78
21926000,$GPGGA,060526,5220.022640,N,00924.696801,E,1,10,0.7,78.0,M,46.0,M,,*76
21926000,$GPGGA,060526,5220.022640,N,00924.696801,E,1,10,0.7,78.0,M,46.0,M,,*76
21927000,$GPGGA,060527,5220.026123,N,00924.685690,E,1,10,0.7,78.0,M,46.0,M,,*75
21927000,$GPGGA,060527,5220.026123,N,00924.685690,E,1,10,0.7,78.0,M,46.0,M,,*75
21928000,$GPGGA,060528,5220.029385,N,00924.674381,E,1,10,0.7,79.0,M,46.0,M,,*71
21928000,$GPGGA,060528,5220.029385,N,00924.674381,E,1,10,0.7,79.0,M,46.0,M,,*71
21929000,$GPGGA,060529,5220.032483,N,00924.662650,E,1,09,0.8,79.0,M,46.0,M,,*72
21929000,$GPGGA,060529,5220.032483,N,00924.662650,E,1,09,0.8,79.0,M,46.0,M,,*72
21930000,$GPGGA,060530,5220.035292,N,00924.650724,E,1,10,0.7,79.0,M,46.0,M,,*7F
21930000,$GPGGA,060530,5220.035292,N,00924.650724,E,1,10,0.7,79.0,M,46.0,M,,*7F
21931000,$GPGGA,060531,5220.038085,N,00924.638455,E,1,10,0.7,80.0,M,46.0,M,,*7A
21931000,$GPGGA,060531,5220.038085,N,00924.638455,E,1,10,0.7,80.0,M,46.0,M,,*7A
21932000,$GPGGA,060532,5220.040762,N,00924.626349,E,1,10,0.7,80.0,M,46.0,M,,*7D
21932000,$GPGGA,060532,5220.040762,N,00924.626349,E,1,10,0.7,80.0,M,46.0,M,,*7D
21933000,$GPGGA,060533,5220.042975,N,00924.613858,E,1,10,0.7,80.0,M,46.0,M,,*7B
21933000,$GPGGA,060533,5220.042975,N,00924.613858,E,1,10,0.7,80.0,M,46.0,M,,*7B
21934000,$GPGGA,060534,5220.045056,N,00924.601838,E,1,10,0.7,80.0,M,46.0,M,,*76
21934000,$GPGGA,060534,5220.045056,N,00924.601838,E,1,10,0.7,80.0,M,46.0,M,,*76
21935000,$GPGGA,060535,5220.046868,N,00924.589669,E,1,10,0.7,81.0,M,46.0,M,,*79
21935000,$GPGGA,060535,5220.046868,N,00924.589669,E,1,10,0.7,81.0,M,46.0,M,,*79
21936000,$GPGGA,060536,5220.048359,N,00924.577691,E,1,10,0.7,81.0,M,46.0,M,,*7B
21936000,$GPGGA,060536,5220.048359,N,00924.577691,E,1,10,0.7,81.0,M,46.0,M,,*7B
21937000,$GPGGA,060537,5220.049679,N,00924.565519,E,1,10,0.7,81.0,M,46.0,M,,*7C
21937000,$GPGGA,060537,5220.049679,N,00924.565519,E,1,10,0.7,81.0,M,46.0,M,,*7C
21938000,$GPGGA,060538,5220.050902,N,00924.553070,E,1,10,0.7,81.0,M,46.0,M,,*77
21938000,$GPGGA,060538,5220.050902,N,00924.553070,E,1,10,0.7,81.0,M,46.0,M,,*77
21939000,$GPGGA,060539,5220.052158,N,00924.540092,E,1,10,0.7,81.0,M,46.0,M,,*7D
21939000,$GPGGA,060539,5220.052158,N,00924.540092,E,1,10,0.7,81.0,M,46.0,M,,*7D
21940000,$GPGGA,060540,5220.053307,N,00924.527341,E,1,10,0.8,81.0,M,46.0,M,,*79
21940000,$GPGGA,060540,5220.053307,N,00924.527341,E,1,10,0.8,81.0,M,46.0,M,,*79
21941000,$GPGGA,060541,5220.054680,N,00924.514242,E,1,10,1.8,81.0,M,46.0,M,,*76
21941000,$GPGGA,060541,5220.054680,N,00924.514242,E,1,10,1.8,81.0,M,46.0,M,,*76
21942000,$GPGGA,060542,5220.056138,N,00924.500863,E,1,10,500.0,81.0,M,46.0,M,,*73
21942000,$GPGGA,060542,5220.056138,N,00924.500863,E,1,10,500.0,81.0,M,46.0,M,,*73
21943000,$GPGGA,060543,5220.057652,N,00924.487798,E,1,10,27.6,81.0,M,46.0,M,,*4B
21943000,$GPGGA,060543,5220.057652,N,00924.487798,E,1,10,27.6,81.0,M,46.0,M,,*4B
21944000,$GPGGA,060544,5220.058925,N,00924.475069,E,1,09,1.6,81.0,M,46.0,M,,*74
21944000,$GPGGA,060544,5220.058925,N,00924.475069,E,1,09,1.6,81.0,M,46.0,M,,*74
21945000,$GPGGA,060545,5220.059405,N,00924.465424,E,1,09,0.7,83.0,M,46.0,M,,*75
21945000,$GPGGA,060545,5220.059405,N,00924.465424,E,1,09,0.7,83.0,M,46.0,M,,*75
21946000,$GPGGA,060546,5220.059202,N,00924.453335,E,1,09,0.7,82.0,M,46.0,M,,*74
21946000,$GPGGA,060546,5220.059202,N,00924.453335,E,1,09,0.7,82.0,M,46.0,M,,*74
21947000,$GPGGA,060547,5220.058767,N,00924.442236,E,1,09,0.7,82.0,M,46.0,M,,*70
21947000,$GPGGA,060547,5220.058767,N,00924.442236,E,1,09,0.7,82.0,M,46.0,M,,*70
21948000,$GPGGA,060548,5220.058383,N,00924.431494,E,1,09,0.8,83.0,M,46.0,M,,*75
21948000,$GPGGA,060548,5220.058383,N,00924.431494,E,1,09,0.8,83.0,M,46.0,M,,*75
21949000,$GPGGA,060549,5220.058099,N,00924.420850,E,1,09,0.7,82.0,M,46.0,M,,*76
21949000,$GPGGA,060549,5220.058099,N,00924.420850,E,1,09,0.7,82.0,M,46.0,M,,*76
21950000,$GPGGA,060550,5220.057779,N,00924.411337,E,1,09,0.7,82.0,M,46.0,M,,*70
21950000,$GPGGA,060550,5220.057779,N,00924.411337,E,1,09,0.7,82.0,M,46.0,M,,*70
21951000,$GPGGA,060551,5220.058502,N,00924.402410,E,1,09,0.7,83.0,M,46.0,M,,*71
21951000,$GPGGA,060551,5220.058502,N,00924.402410,E,1,09,0.7,83.0,M,46.0,M,,*71
21952000,$GPGGA,060552,5220.060891,N,00924.394917,E,1,09,0.7,82.0,M,46.0,M,,*7D
21952000,$GPGGA,060552,5220.060891,N,00924.394917,E,1,09,0.7,82.0,M,46.0,M,,*7D
21953000,$GPGGA,060553,5220.064752,N,00924.388916,E,1,10,0.7,83.0,M,46.0,M,,*7D
21953000,$GPGGA,060553,5220.064752,N,00924.388916,E,1,10,0.7,83.0,M,46.0,M,,*7D
21954000,$GPGGA,060554,5220.070198,N,00924.385061,E,1,10,0.7,82.0,M,46.0,M,,*7A
21954000,$GPGGA,060554,5220.070198,N,00924.385061,E,1,10,0.7,82.0,M,46.0,M,,*7A
21955000,$GPGGA,060555,5220.076583,N,00924.383837,E,1,09,0.7,82.0,M,46.0,M,,*76
21955000,$GPGGA,060555,5220.076583,N,00924.383837,E,1,09,0.7,82.0,M,46.0,M,,*76
21956000,$GPGGA,060556,5220.083548,N,00924.385140,E,1,08,0.8,81.0,M,46.0,M,,*7A
21956000,$GPGGA,060556,5220.083548,N,00924.385140,E,1,08,0.8,81.0,M,46.0,M,,*7A
21957000,$GPGGA,060557,5220.091043,N,00924.388457,E,1,08,0.8,81.0,M,46.0,M,,*78
21957000,$GPGGA,060557,5220.091043,N,00924.388457,E,1,08,0.8,81.0,M,46.0,M,,*78
21958000,$GPGGA,060558,5220.098728,N,00924.393946,E,1,08,0.8,81.0,M,46.0,M,,*73
21958000,$GPGGA,060558,5220.098728,N,00924.393946,E,1,08,0.8,81.0,M,46.0,M,,*73
21959000,$GPGGA,060559,5220.105585,N,00924.399970,E,1,08,0.7,80.0,M,46.0,M,,*73
21959000,$GPGGA,060559,5220.105585,N,00924.399970,E,1,08,0.7,80.0,M,46.0,M,,*73
21960000,$GPGGA,060600,5220.111731,N,00924.409865,E,1,09,0.7,80.0,M,46.0,M,,*7E
21960000,$GPGGA,060600,5220.111731,N,00924.409865,E,1,09,0.7,80.0,M,46.0,M,,*7E
21961000,$GPGGA,060601,5220.117108,N,00924.420976,E,1,09,0.7,80.0,M,46.0,M,,*7D
21961000,$GPGGA,060601,5220.117108,N,00924.420976,E,1,09,0.7,80.0,M,46.0,M,,*7D
21962000,$GPGGA,060602,5220.120824,N,00924.432677,E,1,09,0.7,79.0,M,46.0,M,,*76
21962000,$GPGGA,060602,5220.120824,N,00924.432677,E,1,09,0.7,79.0,M,46.0,M,,*76
21963000,$GPGGA,060603,5220.123380,N,00924.445174,E,1,09,0.7,79.0,M,46.0,M,,*75
21963000,$GPGGA,060603,5220.123380,N,00924.445174,E,1,09,0.7,79.0,M,46.0,M,,*75
21964000,$GPGGA,060604,5220.125178,N,00924.457994,E,1,09,0.7,80.0,M,46.0,M,,*72
21964000,$GPGGA,060604,5220.125178,N,00924.457994,E,1,09,0.7,80.0,M,46.0,M,,*72
21965000,$GPGGA,060605,5220.125612,N,00924.470840,E,1,09,0.7,80.0,M,46.0,M,,*75
21965000,$GPGGA,060605,5220.125612,N,00924.470840,E,1,09,0.7,80.0,M,46.0,M,,*75
21966000,$GPGGA,060606,5220.124818,N,00924.483226,E,1,09,0.7,81.0,M,46.0,M,,*74
21966000,$GPGGA,060606,5220.124818,N,00924.483226,E,1,09,0.7,81.0,M,46.0,M,,*74
21967000,$GPGGA,060607,5220.123042,N,00924.494861,E,1,09,0.7,81.0,M,46.0,M,,*7A
21967000,$GPGGA,060607,5220.123042,N,00924.494861,E,1,09,0.7,81.0,M,46.0,M,,*7A
21968000,$GPGGA,060608,5220.119996,N,00924.505742,E,1,09,0.7,81.0,M,46.0,M,,*7B
21968000,$GPGGA,060608,5220.119996,N,00924.505742,E,1,09,0.7,81.0,M,46.0,M,,*7B
21969000,$GPGGA,060609,5220.116102,N,00924.514736,E,1,09,0.7,82.0,M,46.0,M,,*70
21969000,$GPGGA,060609,5220.116102,N,00924.514736,E,1,09,0.7,82.0,M,46.0,M,,*70
21970000,$GPGGA,060610,5220.111545,N,00924.521939,E,1,09,0.7,82.0,M,46.0,M,,*7F
21970000,$GPGGA,060610,5220.111545,N,00924.521939,E,1,09,0.7,82.0,M,46.0,M,,*7F
21971000,$GPGGA,060611,5220.106421,N,00924.527119,E,1,09,0.7,83.0,M,46.0,M,,*76
21971000,$GPGGA,060611,5220.106421,N,00924.527119,E,1,09,0.7,83.0,M,46.0,M,,*76
21972000,$GPGGA,060612,5220.101207,N,00924.529837,E,1,09,0.7,83.0,M,46.0,M,,*7B
21972000,$GPGGA,060612,5220.101207,N,00924.529837,E,1,09,0.7,83.0,M,46.0,M,,*7B
21973000,$GPGGA,060613,5220.096302,N,00924.530716,E,1,09,0.7,83.0,M,46.0,M,,*75
21973000,$GPGGA,060613,5220.096302,N,00924.530716,E,1,09,0.7,83.0,M,46.0,M,,*75
21974000,$GPGGA,060614,5220.091694,N,00924.530129,E,1,09,0.7,84.0,M,46.0,M,,*72
21974000,$GPGGA,060614,5220.091694,N,00924.530129,E,1,09,0.7,84.0,M,46.0,M,,*72
21975000,$GPGGA,060615,5220.087404,N,00924.528530,E,1,09,0.7,84.0,M,46.0,M,,*7A
21975000,$GPGGA,060615,5220.087404,N,00924.528530,E,1,09,0.7,84.0,M,46.0,M,,*7A
21976000,$GPGGA,060616,5220.083108,N,00924.525984,E,1,09,0.7,84.0,M,46.0,M,,*7A
21976000,$GPGGA,060616,5220.083108,N,00924.525984,E,1,09,0.7,84.0,M,46.0,M,,*7A
21977000,$GPGGA,060617,5220.079111,N,00924.522423,E,1,08,0.7,85.0,M,46.0,M,,*71
21977000,$GPGGA,060617,5220.079111,N,00924.522423,E,1,08,0.7,85.0,M,46.0,M,,*71
21978000,$GPGGA,060618,5220.075138,N,00924.517977,E,1,08,0.7,85.0,M,46.0,M,,*73
21978000,$GPGGA,060618,5220.075138,N,00924.517977,E,1,08,0.7,85.0,M,46.0,M,,*73
21979000,$GPGGA,060619,5220.071402,N,00924.512737,E,1,09,0.7,85.0,M,46.0,M,,*74
21979000,$GPGGA,060619,5220.071402,N,00924.512737,E,1,09,0.7,85.0,M,46.0,M,,*74
21980000,$GPGGA,060620,5220.067233,N,00924.506791,E,1,09,0.7,86.0,M,46.0,M,,*77
21980000,$GPGGA,060620,5220.067233,N,00924.506791,E,1,09,0.7,86.0,M,46.0,M,,*77
21981000,$GPGGA,060621,5220.062723,N,00924.500296,E,1,09,0.7,86.0,M,46.0,M,,*73
21981000,$GPGGA,060621,5220.062723,N,00924.500296,E,1,09,0.7,86.0,M,46.0,M,,*73
21982000,$GPGGA,060622,5220.057854,N,00924.493057,E,1,09,0.7,85.0,M,46.0,M,,*7E
21982000,$GPGGA,060622,5220.057854,N,00924.493057,E,1,09,0.7,85.0,M,46.0,M,,*7E
21983000,$GPGGA,060623,5220.052548,N,00924.484922,E,1,09,0.7,85.0,M,46.0,M,,*77
21983000,$GPGGA,060623,5220.052548,N,00924.484922,E,1,09,0.7,85.0,M,46.0,M,,*77
21984000,$GPGGA,060624,5220.046529,N,00924.476415,E,1,09,0.7,86.0,M,46.0,M,,*75
21984000,$GPGGA,060624,5220.046529,N,00924.476415,E,1,09,0.7,86.0,M,46.0,M,,*75
21985000,$GPGGA,060625,5220.040162,N,00924.467554,E,1,09,0.7,86.0,M,46.0,M,,*7D
21985000,$GPGGA,060625,5220.040162,N,00924.467554,E,1,09,0.7,86.0,M,46.0,M,,*7D
21986000,$GPGGA,060626,5220.033150,N,00924.457711,E,1,09,0.7,86.0,M,46.0,M,,*7B
21986000,$GPGGA,060626,5220.033150,N,00924.457711,E,1,09,0.7,86.0,M,46.0,M,,*7B
21987000,$GPGGA,060627,5220.026018,N,00924.447659,E,1,08,0.7,86.0,M,46.0,M,,*7E
21987000,$GPGGA,060627,5220.026018,N,00924.447659,E,1,08,0.7,86.0,M,46.0,M,,*7E
21988000,$GPGGA,060628,5220.018648,N,00924.436888,E,1,08,0.7,87.0,M,46.0,M,,*7A
21988000,$GPGGA,060628,5220.018648,N,00924.436888,E,1,08,0.7,87.0,M,46.0,M,,*7A
21989000,$GPGGA,060629,5220.011380,N,00924.426088,E,1,09,0.7,87.0,M,46.0,M,,*7B
21989000,$GPGGA,060629,5220.011380,N,00924.426088,E,1,09,0.7,87.0,M,46.0,M,,*7B
21990000,$GPGGA,060630,5220.004147,N,00924.414387,E,1,09,0.7,88.0,M,46.0,M,,*7C
21990000,$GPGGA,060630,5220.004147,N,00924.414387,E,1,09,0.7,88.0,M,46.0,M,,*7C
21991000,$GPGGA,060631,5219.996853,N,00924.403208,E,1,08,0.7,88.0,M,46.0,M,,*78
21991000,$GPGGA,060631,5219.996853,N,00924.403208,E,1,08,0.7,88.0,M,46.0,M,,*78
21992000,$GPGGA,060632,5219.989707,N,00924.392094,E,1,08,0.7,88.0,M,46.0,M,,*73
21992000,$GPGGA,060632,5219.989707,N,00924.392094,E,1,08,0.7,88.0,M,46.0,M,,*73
21993000,$GPGGA,060633,5219.982653,N,00924.381404,E,1,08,0.7,88.0,M,46.0,M,,*76
21993000,$GPGGA,060633,5219.982653,N,00924.381404,E,1,08,0.7,88.0,M,46.0,M,,*76
21994000,$GPGGA,060634,5219.975388,N,00924.370187,E,1,08,0.7,89.0,M,46.0,M,,*7B
21994000,$GPGGA,060634,5219.975388,N,00924.370187,E,1,08,0.7,89.0,M,46.0,M,,*7B
21995000,$GPGGA,060635,5219.967774,N,00924.358489,E,1,08,0.7,89.0,M,46.0,M,,*7F
21995000,$GPGGA,060635,5219.967774,N,00924.358489,E,1,08,0.7,89.0,M,46.0,M,,*7F
21996000,$GPGGA,060636,5219.959898,N,00924.346553,E,1,08,0.8,90.0,M,46.0,M,,*72
21996000,$GPGGA,060636,5219.959898,N,00924.346553,E,1,08,0.8,90.0,M,46.0,M,,*72
21997000,$GPGGA,060637,5219.951670,N,00924.334694,E,1,08,0.7,91.0,M,46.0,M,,*70
21997000,$GPGGA,060637,5219.951670,N,00924.334694,E,1,08,0.7,91.0,M,46.0,M,,*70
21998000,$GPGGA,060638,5219.943687,N,00924.323389,E,1,08,0.8,91.0,M,46.0,M,,*74
21998000,$GPGGA,060638,5219.943687,N,00924.323389,E,1,08,0.8,91.0,M,46.0,M,,*74
21999000,$GPGGA,060639,5219.935884,N,00924.311966,E,1,08,0.7,92.0,M,46.0,M,,*7F
21999000,$GPGGA,060639,5219.935884,N,00924.311966,E,1,08,0.7,92.0,M,46.0,M,,*7F
22000000,$GPGGA,060640,5219.928017,N,00924.300836,E,1,08,0.7,92.0,M,46.0,M,,*7B
22000000,$GPGGA,060640,5219.928017,N,00924.300836,E,1,08,0.7,92.0,M,46.0,M,,*7B
22001000,$GPGGA,060641,5219.920580,N,00924.289940,E,1,08,0.7,93.0,M,46.0,M,,*78
22001000,$GPGGA,060641,5219.920580,N,00924.289940,E,1,08,0.7,93.0,M,46.0,M,,*78
22002000,$GPGGA,060642,5219.913195,N,00924.278711,E,1,08,0.7,93.0,M,46.0,M,,*7F
22002000,$GPGGA,060642,5219.913195,N,00924.278711,E,1,08,0.7,93.0,M,46.0,M,,*7F
22003000,$GPGGA,060643,5219.905702,N,00924.267127,E,1,09,0.7,93.0,M,46.0,M,,*7D
22003000,$GPGGA,060643,5219.905702,N,00924.267127,E,1,09,0.7,93.0,M,46.0,M,,*7D
22004000,$GPGGA,060644,5219.898533,N,00924.255779,E,1,09,0.7,94.0,M,46.0,M,,*74
22004000,$GPGGA,060644,5219.898533,N,00924.255779,E,1,09,0.7,94.0,M,46.0,M,,*74
22005000,$GPGGA,060645,5219.891005,N,00924.244129,E,1,08,0.7,94.0,M,46.0,M,,*7E
22005000,$GPGGA,060645,5219.891005,N,00924.244129,E,1,08,0.7,94.0,M,46.0,M,,*7E
22006000,$GPGGA,060646,5219.883162,N,00924.232241,E,1,08,0.7,95.0,M,46.0,M,,*73
22006000,$GPGGA,060646,5219.883162,N,00924.232241,E,1,08,0.7,95.0,M,46.0,M,,*73
22007000,$GPGGA,060647,5219.875202,N,00924.219624,E,1,09,0.7,95.0,M,46.0,M,,*71
22007000,$GPGGA,060647,5219.875202,N,00924.219624,E,1,09,0.7,95.0,M,46.0,M,,*71
22008000,$GPGGA,060648,5219.866863,N,00924.206950,E,1,09,0.7,95.0,M,46.0,M,,*73
22008000,$GPGGA,060648,5219.866863,N,00924.206950,E,1,09,0.7,95.0,M,46.0,M,,*73
22009000,$GPGGA,060649,5219.857882,N,00924.194159,E,1,09,0.7,96.0,M,46.0,M,,*75
22009000,$GPGGA,060649,5219.857882,N,00924.194159,E,1,09,0.7,96.0,M,46.0,M,,*75
22010000,$GPGGA,060650,5219.848629,N,00924.180857,E,1,09,0.7,97.0,M,46.0,M,,*7F
22010000,$GPGGA,060650,5219.848629,N,00924.180857,E,1,09,0.7,97.0,M,46.0,M,,*7F
22011000,$GPGGA,060651,5219.839473,N,00924.167481,E,1,09,0.7,97.0,M,46.0,M,,*7B
22011000,$GPGGA,060651,5219.839473,N,00924.167481,E,1,09,0.7,97.0,M,46.0,M,,*7B
22012000,$GPGGA,060652,5219.830254,N,00924.153837,E,1,08,0.7,97.0,M,46.0,M,,*75
22012000,$GPGGA,060652,5219.830254,N,00924.153837,E,1,08,0.7,97.0,M,46.0,M,,*75
22013000,$GPGGA,060653,5219.820653,N,00924.139442,E,1,08,0.7,98.0,M,46.0,M,,*7B
22013000,$GPGGA,060653,5219.820653,N,00924.139442,E,1,08,0.7,98.0,M,46.0,M,,*7B
22014000,$GPGGA,060654,5219.810909,N,00924.124831,E,1,08,0.7,98.0,M,46.0,M,,*7B
22014000,$GPGGA,060654,5219.810909,N,00924.124831,E,1,08,0.7,98.0,M,46.0,M,,*7B
22015000,$GPGGA,060655,5219.801221,N,00924.109511,E,1,08,0.7,99.0,M,46.0,M,,*7A
22015000,$GPGGA,060655,5219.801221,N,00924.109511,E,1,08,0.7,99.0,M,46.0,M,,*7A
22016000,$GPGGA,060656,5219.791559,N,00924.093646,E,1,09,0.7,100.0,M,46.0,M,,*44
22016000,$GPGGA,060656,5219.791559,N,00924.093646,E,1,09,0.7,100.0,M,46.0,M,,*44
22017000,$GPGGA,060657,5219.781617,N,00924.076748,E,1,09,0.8,101.0,M,46.0,M,,*47
22017000,$GPGGA,060657,5219.781617,N,00924.076748,E,1,09,0.8,101.0,M,46.0,M,,*47
22018000,$GPGGA,060658,5219.771462,N,00924.059681,E,1,09,0.8,102.0,M,46.0,M,,*4D
22018000,$GPGGA,060658,5219.771462,N,00924.059681,E,1,09,0.8,102.0,M,46.0,M,,*4D
22019000,$GPGGA,060659,5219.761335,N,00924.042128,E,1,09,0.8,103.0,M,46.0,M,,*47
22019000,$GPGGA,060659,5219.761335,N,00924.042128,E,1,09,0.8,103.0,M,46.0,M,,*47
22020000,$GPGGA,060700,5219.751236,N,00924.024010,E,1,08,0.8,104.0,M,46.0,M,,*47
22020000,$GPGGA,060700,5219.751236,N,00924.024010,E,1,08,0.8,104.0,M,46.0,M,,*47
22021000,$GPGGA,060701,5219.741214,N,00924.005444,E,1,08,0.7,105.0,M,46.0,M,,*4F
22021000,$GPGGA,060701,5219.741214,N,00924.005444,E,1,08,0.7,105.0,M,46.0,M,,*4F
22022000,$GPGGA,060702,5219.731602,N,00923.987283,E,1,08,0.7,106.0,M,46.0,M,,*42
22022000,$GPGGA,060702,5219.731602,N,00923.987283,E,1,08,0.7,106.0,M,46.0,M,,*42
22023000,$GPGGA,060703,5219.722541,N,00923.969293,E,1,08,0.7,107.0,M,46.0,M,,*45
22023000,$GPGGA,060703,5219.722541,N,00923.969293,E,1,08,0.7,107.0,M,46.0,M,,*45
22024000,$GPGGA,060704,5219.713526,N,00923.950717,E,1,08,0.7,108.0,M,46.0,M,,*4D
22024000,$GPGGA,060704,5219.713526,N,00923.950717,E,1,08,0.7,108.0,M,46.0,M,,*4D
22025000,$GPGGA,060705,5219.704417,N,00923.932342,E,1,08,0.7,109.0,M,46.0,M,,*48
22025000,$GPGGA,060705,5219.704417,N,00923.932342,E,1,08,0.7,109.0,M,46.0,M,,*48
22026000,$GPGGA,060706,5219.695980,N,00923.913785,E,1,09,0.7,109.0,M,46.0,M,,*4C
22026000,$GPGGA,060706,5219.695980,N,00923.913785,E,1,09,0.7,109.0,M,46.0,M,,*4C
22027000,$GPGGA,060707,5219.687391,N,00923.895857,E,1,09,0.8,104.0,M,46.0,M,,*49
22027000,$GPGGA,060707,5219.687391,N,00923.895857,E,1,09,0.8,104.0,M,46.0,M,,*49
22028000,$GPGGA,060708,5219.678741,N,00923.878525,E,1,09,0.7,107.0,M,46.0,M,,*48
22028000,$GPGGA,060708,5219.678741,N,00923.878525,E,1,09,0.7,107.0,M,46.0,M,,*48
22029000,$GPGGA,060709,5219.670174,N,00923.861447,E,1,09,0.7,109.0,M,46.0,M,,*42
22029000,$GPGGA,060709,5219.670174,N,00923.861447,E,1,09,0.7,109.0,M,46.0,M,,*42
22030000,$GPGGA,060710,5219.662305,N,00923.844820,E,1,09,0.7,110.0,M,46.0,M,,*4F
22030000,$GPGGA,060710,5219.662305,N,00923.844820,E,1,09,0.7,110.0,M,46.0,M,,*4F
22031000,$GPGGA,060711,5219.654086,N,00923.828560,E,1,09,0.7,111.0,M,46.0,M,,*41
22031000,$GPGGA,060711,5219.654086,N,00923.828560,E,1,09,0.7,111.0,M,46.0,M,,*41
22032000,$GPGGA,060712,5219.645719,N,00923.812883,E,1,08,0.7,112.0,M,46.0,M,,*48
22032000,$GPGGA,060712,5219.645719,N,00923.812883,E,1,08,0.7,112.0,M,46.0,M,,*48
22033000,$GPGGA,060713,5219.637653,N,00923.797061,E,1,08,0.7,114.0,M,46.0,M,,*43
22033000,$GPGGA,060713,5219.637653,N,00923.797061,E,1,08,0.7,114.0,M,46.0,M,,*43
22034000,$GPGGA,060714,5219.629791,N,00923.781187,E,1,09,0.7,115.0,M,46.0,M,,*4A
22034000,$GPGGA,060714,5219.629791,N,00923.781187,E,1,09,0.7,115.0,M,46.0,M,,*4A
22035000,$GPGGA,060715,5219.621884,N,00923.765239,E,1,08,0.7,116.0,M,46.0,M,,*46
22035000,$GPGGA,060715,5219.621884,N,00923.765239,E,1,08,0.7,116.0,M,46.0,M,,*46
22036000,$GPGGA,060716,5219.613438,N,00923.749103,E,1,08,0.7,117.0,M,46.0,M,,*4A
22036000,$GPGGA,060716,5219.613438,N,00923.749103,E,1,08,0.7,117.0,M,46.0,M,,*4A
22037000,$GPGGA,060717,5219.605001,N,00923.732939,E,1,08,0.7,118.0,M,46.0,M,,*40
22037000,$GPGGA,060717,5219.605001,N,00923.732939,E,1,08,0.7,118.0,M,46.0,M,,*40
22038000,$GPGGA,060718,5219.596454,N,00923.716546,E,1,08,0.9,118.0,M,46.0,M,,*4E
22038000,$GPGGA,060718,5219.596454,N,00923.716546,E,1,08,0.9,118.0,M,46.0,M,,*4E
22039000,$GPGGA,060719,5219.587836,N,00923.700329,E,1,08,0.7,119.0,M,46.0,M,,*40
22039000,$GPGGA,060719,5219.587836,N,00923.700329,E,1,08,0.7,119.0,M,46.0,M,,*40
22040000,$GPGGA,060720,5219.579543,N,00923.684200,E,1,08,0.7,120.0,M,46.0,M,,*49
22040000,$GPGGA,060720,5219.579543,N,00923.684200,E,1,08,0.7,120.0,M,46.0,M,,*49
22041000,$GPGGA,060721,5219.571555,N,00923.667939,E,1,09,0.7,121.0,M,46.0,M,,*4B
22041000,$GPGGA,060721,5219.571555,N,00923.667939,E,1,09,0.7,121.0,M,46.0,M,,*4B
22042000,$GPGGA,060722,5219.563476,N,00923.651558,E,1,08,0.7,122.0,M,46.0,M,,*47
22042000,$GPGGA,060722,5219.563476,N,00923.651558,E,1,08,0.7,122.0,M,46.0,M,,*47
22043000,$GPGGA,060723,5219.555153,N,00923.636164,E,1,08,0.7,123.0,M,46.0,M,,*4A
22043000,$GPGGA,060723,5219.555153,N,00923.636164,E,1,08,0.7,123.0,M,46.0,M,,*4A
22044000,$GPGGA,060724,5219.546795,N,00923.621187,E,1,08,0.7,123.0,M,46.0,M,,*48
22044000,$GPGGA,060724,5219.546795,N,00923.621187,E,1,08,0.7,123.0,M,46.0,M,,*48
22045000,$GPGGA,060725,5219.538481,N,00923.606717,E,1,08,0.7,124.0,M,46.0,M,,*4B
22045000,$GPGGA,060725,5219.538481,N,00923.606717,E,1,08,0.7,124.0,M,46.0,M,,*4B
22046000,$GPGGA,060726,5219.530100,N,00923.592309,E,1,09,0.7,125.0,M,46.0,M,,*49
22046000,$GPGGA,060726,5219.530100,N,00923.592309,E,1,09,0.7,125.0,M,46.0,M,,*49
22047000,$GPGGA,060727,5219.521310,N,00923.577810,E,1,09,0.7,114.0,M,46.0,M,,*41
22047000,$GPGGA,060727,5219.521310,N,00923.577810,E,1,09,0.7,114.0,M,46.0,M,,*41
22048000,$GPGGA,060728,5219.512637,N,00923.563629,E,1,09,0.7,115.0,M,46.0,M,,*4E
22048000,$GPGGA,060728,5219.512637,N,00923.563629,E,1,09,0.7,115.0,M,46.0,M,,*4E
22049000,$GPGGA,060729,5219.503694,N,00923.549470,E,1,09,0.7,120.0,M,46.0,M,,*46
22049000,$GPGGA,060729,5219.503694,N,00923.549470,E,1,09,0.7,120.0,M,46.0,M,,*46
22050000,$GPGGA,060730,5219.494671,N,00923.535077,E,1,09,0.7,123.0,M,46.0,M,,*41
22050000,$GPGGA,060730,5219.494671,N,00923.535077,E,1,09,0.7,123.0,M,46.0,M,,*41
22051000,$GPGGA,060731,5219.485439,N,00923.520803,E,1,09,0.7,128.0,M,46.0,M,,*4A
22051000,$GPGGA,060731,5219.485439,N,00923.520803,E,1,09,0.7,128.0,M,46.0,M,,*4A
22052000,$GPGGA,060732,5219.476187,N,00923.506771,E,1,09,0.7,129.0,M,46.0,M,,*4A
22052000,$GPGGA,060732,5219.476187,N,00923.506771,E,1,09,0.7,129.0,M,46.0,M,,*4A
22053000,$GPGGA,060733,5219.466697,N,00923.492764,E,1,09,0.7,130.0,M,46.0,M,,*4C
22053000,$GPGGA,060733,5219.466697,N,00923.492764,E,1,09,0.7,130.0,M,46.0,M,,*4C
22054000,$GPGGA,060734,5219.457217,N,00923.478926,E,1,09,0.7,130.0,M,46.0,M,,*49
22054000,$GPGGA,060734,5219.457217,N,00923.478926,E,1,09,0.7,130.0,M,46.0,M,,*49
22055000,$GPGGA,060735,5219.447607,N,00923.465499,E,1,09,0.7,131.0,M,46.0,M,,*48
22055000,$GPGGA,060735,5219.447607,N,00923.465499,E,1,09,0.7,131.0,M,46.0,M,,*48
22056000,$GPGGA,060736,5219.438285,N,00923.451764,E,1,09,0.7,132.0,M,46.0,M,,*48
22056000,$GPGGA,060736,5219.438285,N,00923.451764,E,1,09,0.7,132.0,M,46.0,M,,*48
22057000,$GPGGA,060737,5219.428703,N,00923.438425,E,1,09,0.7,132.0,M,46.0,M,,*4A
22057000,$GPGGA,060737,5219.428703,N,00923.438425,E,1,09,0.7,132.0,M,46.0,M,,*4A
22058000,$GPGGA,060738,5219.419538,N,00923.425021,E,1,09,0.8,132.0,M,46.0,M,,*4E
22058000,$GPGGA,060738,5219.419538,N,00923.425021,E,1,09,0.8,132.0,M,46.0,M,,*4E
22059000,$GPGGA,060739,5219.409992,N,00923.412329,E,1,09,0.7,133.0,M,46.0,M,,*43
22059000,$GPGGA,060739,5219.409992,N,00923.412329,E,1,09,0.7,133.0,M,46.0,M,,*43
22060000,$GPGGA,060740,5219.401013,N,00923.399550,E,1,09,0.7,132.0,M,46.0,M,,*48
22060000,$GPGGA,060740,5219.401013,N,00923.399550,E,1,09,0.7,132.0,M,46.0,M,,*48
22061000,$GPGGA,060741,5219.390907,N,00923.386523,E,1,09,0.7,133.0,M,46.0,M,,*41
22061000,$GPGGA,060741,5219.390907,N,00923.386523,E,1,09,0.7,133.0,M,46.0,M,,*41
22062000,$GPGGA,060742,5219.380961,N,00923.374091,E,1,09,0.7,133.0,M,46.0,M,,*42
22062000,$GPGGA,060742,5219.380961,N,00923.374091,E,1,09,0.7,133.0,M,46.0,M,,*42
22063000,$GPGGA,060743,5219.370913,N,00923.361380,E,1,08,0.7,134.0,M,46.0,M,,*48
22063000,$GPGGA,060743,5219.370913,N,00923.361380,E,1,08,0.7,134.0,M,46.0,M,,*48
22064000,$GPGGA,060744,5219.361161,N,00923.348851,E,1,09,0.6,134.0,M,46.0,M,,*4E
22064000,$GPGGA,060744,5219.361161,N,00923.348851,E,1,09,0.6,134.0,M,46.0,M,,*4E
22065000,$GPGGA,060745,5219.351332,N,00923.336837,E,1,09,0.6,134.0,M,46.0,M,,*41
22065000,$GPGGA,060745,5219.351332,N,00923.336837,E,1,09,0.6,134.0,M,46.0,M,,*41
22066000,$GPGGA,060746,5219.341658,N,00923.324791,E,1,09,0.6,133.0,M,46.0,M,,*4D
22066000,$GPGGA,060746,5219.341658,N,00923.324791,E,1,09,0.6,133.0,M,46.0,M,,*4D
22067000,$GPGGA,060747,5219.332182,N,00923.313592,E,1,09,0.6,133.0,M,46.0,M,,*4D
22067000,$GPGGA,060747,5219.332182,N,00923.313592,E,1,09,0.6,133.0,M,46.0,M,,*4D
22068000,$GPGGA,060748,5219.322527,N,00923.302341,E,1,09,0.6,133.0,M,46.0,M,,*40
22068000,$GPGGA,060748,5219.322527,N,00923.302341,E,1,09,0.6,133.0,M,46.0,M,,*40
22069000,$GPGGA,060749,5219.312843,N,00923.290915,E,1,09,0.6,133.0,M,46.0,M,,*4C
22069000,$GPGGA,060749,5219.312843,N,00923.290915,E,1,09,0.6,133.0,M,46.0,M,,*4C
22070000,$GPGGA,060750,5219.303195,N,00923.280004,E,1,09,0.6,133.0,M,46.0,M,,*4E
22070000,$GPGGA,060750,5219.303195,N,00923.280004,E,1,09,0.6,133.0,M,46.0,M,,*4E
22071000,$GPGGA,060751,5219.293294,N,00923.268876,E,1,09,0.7,133.0,M,46.0,M,,*4F
22071000,$GPGGA,060751,5219.293294,N,00923.268876,E,1,09,0.7,133.0,M,46.0,M,,*4F
22072000,$GPGGA,060752,5219.283418,N,00923.258093,E,1,09,0.6,133.0,M,46.0,M,,*4E
22072000,$GPGGA,060752,5219.283418,N,00923.258093,E,1,09,0.6,133.0,M,46.0,M,,*4E
22073000,$GPGGA,060753,5219.273767,N,00923.247165,E,1,09,0.6,133.0,M,46.0,M,,*4D
22073000,$GPGGA,060753,5219.273767,N,00923.247165,E,1,09,0.6,133.0,M,46.0,M,,*4D
22074000,$GPGGA,060754,5219.263978,N,00923.236701,E,1,09,0.6,133.0,M,46.0,M,,*49
22074000,$GPGGA,060754,5219.263978,N,00923.236701,E,1,09,0.6,133.0,M,46.0,M,,*49
22075000,$GPGGA,060755,5219.254383,N,00923.226225,E,1,09,0.7,132.0,M,46.0,M,,*40
22075000,$GPGGA,060755,5219.254383,N,00923.226225,E,1,09,0.7,132.0,M,46.0,M,,*40
22076000,$GPGGA,060756,5219.244684,N,00923.216259,E,1,09,0.7,131.0,M,46.0,M,,*4B
22076000,$GPGGA,060756,5219.244684,N,00923.216259,E,1,09,0.7,131.0,M,46.0,M,,*4B
22077000,$GPGGA,060757,5219.235060,N,00923.206111,E,1,09,0.6,131.0,M,46.0,M,,*4F
22077000,$GPGGA,060757,5219.235060,N,00923.206111,E,1,09,0.6,131.0,M,46.0,M,,*4F
22078000,$GPGGA,060758,5219.225436,N,00923.196076,E,1,09,0.6,130.0,M,46.0,M,,*4D
22078000,$GPGGA,060758,5219.225436,N,00923.196076,E,1,09,0.6,130.0,M,46.0,M,,*4D
22079000,$GPGGA,060759,5219.215464,N,00923.186104,E,1,09,0.6,130.0,M,46.0,M,,*4D
22079000,$GPGGA,060759,5219.215464,N,00923.186104,E,1,09,0.6,130.0,M,46.0,M,,*4D
22080000,$GPGGA,060800,5219.205521,N,00923.176472,E,1,09,0.7,130.0,M,46.0,M,,*45
22080000,$GPGGA,060800,5219.205521,N,00923.176472,E,1,09,0.7,130.0,M,46.0,M,,*45
22081000,$GPGGA,060801,5219.195325,N,00923.167136,E,1,09,0.7,129.0,M,46.0,M,,*41
22081000,$GPGGA,060801,5219.195325,N,00923.167136,E,1,09,0.7,129.0,M,46.0,M,,*41
22082000,$GPGGA,060802,5219.185375,N,00923.157603,E,1,09,0.6,128.0,M,46.0,M,,*44
22082000,$GPGGA,060802,5219.185375,N,00923.157603,E,1,09,0.6,128.0,M,46.0,M,,*44
22083000,$GPGGA,060803,5219.175464,N,00923.148355,E,1,09,0.6,128.0,M,46.0,M,,*45
22083000,$GPGGA,060803,5219.175464,N,00923.148355,E,1,09,0.6,128.0,M,46.0,M,,*45
22084000,$GPGGA,060804,5219.165535,N,00923.139073,E,1,09,0.6,128.0,M,46.0,M,,*47
22084000,$GPGGA,060804,5219.165535,N,00923.139073,E,1,09,0.6,128.0,M,46.0,M,,*47
22085000,$GPGGA,060805,5219.155653,N,00923.129939,E,1,09,0.6,127.0,M,46.0,M,,*4F
22085000,$GPGGA,060805,5219.155653,N,00923.129939,E,1,09,0.6,127.0,M,46.0,M,,*4F
22086000,$GPGGA,060806,5219.145687,N,00923.120711,E,1,09,0.6,127.0,M,46.0,M,,*49
22086000,$GPGGA,060806,5219.145687,N,00923.120711,E,1,09,0.6,127.0,M,46.0,M,,*49
22087000,$GPGGA,060807,5219.135843,N,00923.111833,E,1,09,0.6,127.0,M,46.0,M,,*44
22087000,$GPGGA,060807,5219.135843,N,00923.111833,E,1,09,0.6,127.0,M,46.0,M,,*44
22088000,$GPGGA,060808,5219.126184,N,00923.102815,E,1,09,0.6,126.0,M,46.0,M,,*4C
22088000,$GPGGA,060808,5219.126184,N,00923.102815,E,1,09,0.6,126.0,M,46.0,M,,*4C
22089000,$GPGGA,060809,5219.116194,N,00923.093834,E,1,09,0.6,126.0,M,46.0,M,,*45
22089000,$GPGGA,060809,5219.116194,N,00923.093834,E,1,09,0.6,126.0,M,46.0,M,,*45
22090000,$GPGGA,060810,5219.106316,N,00923.085514,E,1,09,0.6,126.0,M,46.0,M,,*4C
22090000,$GPGGA,060810,5219.106316,N,00923.085514,E,1,09,0.6,126.0,M,46.0,M,,*4C
22091000,$GPGGA,060811,5219.096708,N,00923.076764,E,1,09,0.6,125.0,M,46.0,M,,*44
22091000,$GPGGA,060811,5219.096708,N,00923.076764,E,1,09,0.6,125.0,M,46.0,M,,*44
22092000,$GPGGA,060812,5219.086959,N,00923.067973,E,1,09,0.6,124.0,M,46.0,M,,*45
22092000,$GPGGA,060812,5219.086959,N,00923.067973,E,1,09,0.6,124.0,M,46.0,M,,*45
22093000,$GPGGA,060813,5219.077365,N,00923.059202,E,1,08,0.7,123.0,M,46.0,M,,*48
22093000,$GPGGA,060813,5219.077365,N,00923.059202,E,1,08,0.7,123.0,M,46.0,M,,*48
22094000,$GPGGA,060814,5219.067699,N,00923.050847,E,1,08,0.7,123.0,M,46.0,M,,*4A
22094000,$GPGGA,060814,5219.067699,N,00923.050847,E,1,08,0.7,123.0,M,46.0,M,,*4A
22095000,$GPGGA,060815,5219.057862,N,00923.042261,E,1,08,0.7,122.0,M,46.0,M,,*4E
22095000,$GPGGA,060815,5219.057862,N,00923.042261,E,1,08,0.7,122.0,M,46.0,M,,*4E
22096000,$GPGGA,060816,5219.048391,N,00923.033360,E,1,08,0.7,122.0,M,46.0,M,,*42
22096000,$GPGGA,060816,5219.048391,N,00923.033360,E,1,08,0.7,122.0,M,46.0,M,,*42
22097000,$GPGGA,060817,5219.038464,N,00923.024896,E,1,08,0.7,121.0,M,46.0,M,,*4E
22097000,$GPGGA,060817,5219.038464,N,00923.024896,E,1,08,0.7,121.0,M,46.0,M,,*4E
22098000,$GPGGA,060818,5219.028635,N,00923.016590,E,1,09,0.6,121.0,M,46.0,M,,*4C
22098000,$GPGGA,060818,5219.028635,N,00923.016590,E,1,09,0.6,121.0,M,46.0,M,,*4C
22099000,$GPGGA,060819,5219.018886,N,00923.008297,E,1,09,0.7,120.0,M,46.0,M,,*47
22099000,$GPGGA,060819,5219.018886,N,00923.008297,E,1,09,0.7,120.0,M,46.0,M,,*47
22100000,$GPGGA,060820,5219.009278,N,00922.999980,E,1,09,0.6,119.0,M,46.0,M,,*40
22100000,$GPGGA,060820,5219.009278,N,00922.999980,E,1,09,0.6,119.0,M,46.0,M,,*40
22101000,$GPGGA,060821,5218.999505,N,00922.991171,E,1,09,0.6,119.0,M,46.0,M,,*43
22101000,$GPGGA,060821,5218.999505,N,00922.991171,E,1,09,0.6,119.0,M,46.0,M,,*43
22102000,$GPGGA,060822,5218.989971,N,00922.982585,E,1,09,0.6,118.0,M,46.0,M,,*42
22102000,$GPGGA,060822,5218.989971,N,00922.982585,E,1,09,0.6,118.0,M,46.0,M,,*42
22103000,$GPGGA,060823,5218.980158,N,00922.974166,E,1,08,0.7,117.0,M,46.0,M,,*46
22103000,$GPGGA,060823,5218.980158,N,00922.974166,E,1,08,0.7,117.0,M,46.0,M,,*46
22104000,$GPGGA,060824,5218.970442,N,00922.965276,E,1,09,0.6,117.0,M,46.0,M,,*42
22104000,$GPGGA,060824,5218.970442,N,00922.965276,E,1,09,0.6,117.0,M,46.0,M,,*42
22105000,$GPGGA,060825,5218.960880,N,00922.956880,E,1,09,0.6,117.0,M,46.0,M,,*43
22105000,$GPGGA,060825,5218.960880,N,00922.956880,E,1,09,0.6,117.0,M,46.0,M,,*43
22106000,$GPGGA,060826,5218.950968,N,00922.947943,E,1,08,0.7,116.0,M,46.0,M,,*4B
22106000,$GPGGA,060826,5218.950968,N,00922.947943,E,1,08,0.7,116.0,M,46.0,M,,*4B
22107000,$GPGGA,060827,5218.941392,N,00922.939101,E,1,09,0.7,116.0,M,46.0,M,,*43
22107000,$GPGGA,060827,5218.941392,N,00922.939101,E,1,09,0.7,116.0,M,46.0,M,,*43
22108000,$GPGGA,060828,5218.931962,N,00922.930404,E,1,08,0.7,116.0,M,46.0,M,,*46
22108000,$GPGGA,060828,5218.931962,N,00922.930404,E,1,08,0.7,116.0,M,46.0,M,,*46
22109000,$GPGGA,060829,5218.922250,N,00922.921473,E,1,08,0.7,115.0,M,46.0,M,,*4C
22109000,$GPGGA,060829,5218.922250,N,00922.921473,E,1,08,0.7,115.0,M,46.0,M,,*4C
22110000,$GPGGA,060830,5218.912482,N,00922.912717,E,1,08,0.7,115.0,M,46.0,M,,*4F
22110000,$GPGGA,060830,5218.912482,N,00922.912717,E,1,08,0.7,115.0,M,46.0,M,,*4F
22111000,$GPGGA,060831,5218.902666,N,00922.903851,E,1,08,0.7,114.0,M,46.0,M,,*4B
22111000,$GPGGA,060831,5218.902666,N,00922.903851,E,1,08,0.7,114.0,M,46.0,M,,*4B
22112000,$GPGGA,060832,5218.892776,N,00922.894975,E,1,09,0.7,112.0,M,46.0,M,,*4F
22112000,$GPGGA,060832,5218.892776,N,00922.894975,E,1,09,0.7,112.0,M,46.0,M,,*4F
22113000,$GPGGA,060833,5218.882985,N,00922.886092,E,1,08,0.7,112.0,M,46.0,M,,*4F
22113000,$GPGGA,060833,5218.882985,N,00922.886092,E,1,08,0.7,112.0,M,46.0,M,,*4F
22114000,$GPGGA,060834,5218.873220,N,00922.876950,E,1,08,0.7,111.0,M,46.0,M,,*49
22114000,$GPGGA,060834,5218.873220,N,00922.876950,E,1,08,0.7,111.0,M,46.0,M,,*49
22115000,$GPGGA,060835,5218.863516,N,00922.867682,E,1,08,0.7,110.0,M,46.0,M,,*4A
22115000,$GPGGA,060835,5218.863516,N,00922.867682,E,1,08,0.7,110.0,M,46.0,M,,*4A
22116000,$GPGGA,060836,5218.853595,N,00922.858446,E,1,08,0.7,109.0,M,46.0,M,,*4F
22116000,$GPGGA,060836,5218.853595,N,00922.858446,E,1,08,0.7,109.0,M,46.0,M,,*4F
22117000,$GPGGA,060837,5218.843386,N,00922.849501,E,1,08,0.7,109.0,M,46.0,M,,*49
22117000,$GPGGA,060837,5218.843386,N,00922.849501,E,1,08,0.7,109.0,M,46.0,M,,*49
22118000,$GPGGA,060838,5218.832729,N,00922.839862,E,1,08,0.7,108.0,M,46.0,M,,*4F
22118000,$GPGGA,060838,5218.832729,N,00922.839862,E,1,08,0.7,108.0,M,46.0,M,,*4F
22119000,$GPGGA,060839,5218.821504,N,00922.829741,E,1,08,0.7,109.0,M,46.0,M,,*4F
22119000,$GPGGA,060839,5218.821504,N,00922.829741,E,1,08,0.7,109.0,M,46.0,M,,*4F
22120000,$GPGGA,060840,5218.809728,N,00922.818970,E,1,08,0.7,108.0,M,46.0,M,,*48
22120000,$GPGGA,060840,5218.809728,N,00922.818970,E,1,08,0.7,108.0,M,46.0,M,,*48
22121000,$GPGGA,060841,5218.797444,N,00922.808014,E,1,08,0.7,107.0,M,46.0,M,,*4D
22121000,$GPGGA,060841,5218.797444,N,00922.808014,E,1,08,0.7,107.0,M,46.0,M,,*4D
22122000,$GPGGA,060842,5218.784490,N,00922.796873,E,1,08,0.7,106.0,M,46.0,M,,*45
22122000,$GPGGA,060842,5218.784490,N,00922.796873,E,1,08,0.7,106.0,M,46.0,M,,*45
22123000,$GPGGA,060843,5218.771087,N,00922.785439,E,1,09,0.6,105.0,M,46.0,M,,*4F
22123000,$GPGGA,060843,5218.771087,N,00922.785439,E,1,09,0.6,105.0,M,46.0,M,,*4F
22124000,$GPGGA,060844,5218.757321,N,00922.774060,E,1,08,0.7,104.0,M,46.0,M,,*44
22124000,$GPGGA,060844,5218.757321,N,00922.774060,E,1,08,0.7,104.0,M,46.0,M,,*44
22125000,$GPGGA,060845,5218.743427,N,00922.762307,E,1,08,0.7,103.0,M,46.0,M,,*43
22125000,$GPGGA,060845,5218.743427,N,00922.762307,E,1,08,0.7,103.0,M,46.0,M,,*43
22126000,$GPGGA,060846,5218.729361,N,00922.750263,E,1,09,0.6,103.0,M,46.0,M,,*4B
22126000,$GPGGA,060846,5218.729361,N,00922.750263,E,1,09,0.6,103.0,M,46.0,M,,*4B
22127000,$GPGGA,060847,5218.715468,N,00922.737497,E,1,09,0.6,102.0,M,46.0,M,,*46
22127000,$GPGGA,060847,5218.715468,N,00922.737497,E,1,09,0.6,102.0,M,46.0,M,,*46
22128000,$GPGGA,060848,5218.701483,N,00922.724679,E,1,09,0.6,102.0,M,46.0,M,,*49
22128000,$GPGGA,060848,5218.701483,N,00922.724679,E,1,09,0.6,102.0,M,46.0,M,,*49
22129000,$GPGGA,060849,5218.687660,N,00922.712056,E,1,09,0.7,101.0,M,46.0,M,,*44
22129000,$GPGGA,060849,5218.687660,N,00922.712056,E,1,09,0.7,101.0,M,46.0,M,,*44
22130000,$GPGGA,060850,5218.674311,N,00922.699993,E,1,09,0.7,101.0,M,46.0,M,,*41
22130000,$GPGGA,060850,5218.674311,N,00922.699993,E,1,09,0.7,101.0,M,46.0,M,,*41
22131000,$GPGGA,060851,5218.661241,N,00922.688440,E,1,09,0.7,101.0,M,46.0,M,,*43
22131000,$GPGGA,060851,5218.661241,N,00922.688440,E,1,09,0.7,101.0,M,46.0,M,,*43
22132000,$GPGGA,060852,5218.648224,N,00922.677175,E,1,09,0.7,101.0,M,46.0,M,,*4B
22132000,$GPGGA,060852,5218.648224,N,00922.677175,E,1,09,0.7,101.0,M,46.0,M,,*4B
22133000,$GPGGA,060853,5218.635670,N,00922.665851,E,1,08,0.6,101.0,M,46.0,M,,*49
22133000,$GPGGA,060853,5218.635670,N,00922.665851,E,1,08,0.6,101.0,M,46.0,M,,*49
22134000,$GPGGA,060854,5218.622884,N,00922.654708,E,1,09,0.6,101.0,M,46.0,M,,*4D
22134000,$GPGGA,060854,5218.622884,N,00922.654708,E,1,09,0.6,101.0,M,46.0,M,,*4D
22135000,$GPGGA,060855,5218.610925,N,00922.643386,E,1,09,0.6,100.0,M,46.0,M,,*42
22135000,$GPGGA,060855,5218.610925,N,00922.643386,E,1,09,0.6,100.0,M,46.0,M,,*42
22136000,$GPGGA,060856,5218.598939,N,00922.632066,E,1,09,0.6,100.0,M,46.0,M,,*44
22136000,$GPGGA,060856,5218.598939,N,00922.632066,E,1,09,0.6,100.0,M,46.0,M,,*44
22137000,$GPGGA,060857,5218.586559,N,00922.620661,E,1,09,0.6,100.0,M,46.0,M,,*42
22137000,$GPGGA,060857,5218.586559,N,00922.620661,E,1,09,0.6,100.0,M,46.0,M,,*42
22138000,$GPGGA,060858,5218.574699,N,00922.609120,E,1,09,0.6,100.0,M,46.0,M,,*46
22138000,$GPGGA,060858,5218.574699,N,00922.609120,E,1,09,0.6,100.0,M,46.0,M,,*46
22139000,$GPGGA,060859,5218.562775,N,00922.598474,E,1,09,0.6,99.0,M,46.0,M,,*7D
22139000,$GPGGA,060859,5218.562775,N,00922.598474,E,1,09,0.6,99.0,M,46.0,M,,*7D
22140000,$GPGGA,060900,5218.550920,N,00922.587941,E,1,09,0.6,99.0,M,46.0,M,,*7A
22140000,$GPGGA,060900,5218.550920,N,00922.587941,E,1,09,0.6,99.0,M,46.0,M,,*7A
22141000,$GPGGA,060901,5218.539029,N,00922.577380,E,1,09,0.6,99.0,M,46.0,M,,*7C
22141000,$GPGGA,060901,5218.539029,N,00922.577380,E,1,09,0.6,99.0,M,46.0,M,,*7C
22142000,$GPGGA,060902,5218.527238,N,00922.566649,E,1,09,0.7,99.0,M,46.0,M,,*73
22142000,$GPGGA,060902,5218.527238,N,00922.566649,E,1,09,0.7,99.0,M,46.0,M,,*73
22143000,$GPGGA,060903,5218.515458,N,00922.556789,E,1,09,0.6,99.0,M,46.0,M,,*7C
22143000,$GPGGA,060903,5218.515458,N,00922.556789,E,1,09,0.6,99.0,M,46.0,M,,*7C
22144000,$GPGGA,060904,5218.503506,N,00922.545963,E,1,09,0.6,99.0,M,46.0,M,,*7E
22144000,$GPGGA,060904,5218.503506,N,00922.545963,E,1,09,0.6,99.0,M,46.0,M,,*7E
22145000,$GPGGA,060905,5218.491660,N,00922.535075,E,1,09,0.6,99.0,M,46.0,M,,*7F
22145000,$GPGGA,060905,5218.491660,N,00922.535075,E,1,09,0.6,99.0,M,46.0,M,,*7F
22146000,$GPGGA,060906,5218.479890,N,00922.524777,E,1,09,0.6,98.0,M,46.0,M,,*7F
22146000,$GPGGA,060906,5218.479890,N,00922.524777,E,1,09,0.6,98.0,M,46.0,M,,*7F
22147000,$GPGGA,060907,5218.468098,N,00922.514226,E,1,09,0.6,98.0,M,46.0,M,,*7C
22147000,$GPGGA,060907,5218.468098,N,00922.514226,E,1,09,0.6,98.0,M,46.0,M,,*7C
22148000,$GPGGA,060908,5218.456724,N,00922.503495,E,1,09,0.6,97.0,M,46.0,M,,*79
22148000,$GPGGA,060908,5218.456724,N,00922.503495,E,1,09,0.6,97.0,M,46.0,M,,*79
22149000,$GPGGA,060909,5218.445165,N,00922.493163,E,1,09,0.6,97.0,M,46.0,M,,*7D
22149000,$GPGGA,060909,5218.445165,N,00922.493163,E,1,09,0.6,97.0,M,46.0,M,,*7D
22150000,$GPGGA,060910,5218.433217,N,00922.482590,E,1,09,0.6,96.0,M,46.0,M,,*7B
22150000,$GPGGA,060910,5218.433217,N,00922.482590,E,1,09,0.6,96.0,M,46.0,M,,*7B
22151000,$GPGGA,060911,5218.421604,N,00922.471921,E,1,09,0.6,95.0,M,46.0,M,,*76
22151000,$GPGGA,060911,5218.421604,N,00922.471921,E,1,09,0.6,95.0,M,46.0,M,,*76
22152000,$GPGGA,060912,5218.409526,N,00922.461275,E,1,09,0.6,94.0,M,46.0,M,,*76
22152000,$GPGGA,060912,5218.409526,N,00922.461275,E,1,09,0.6,94.0,M,46.0,M,,*76
22153000,$GPGGA,060913,5218.397733,N,00922.450799,E,1,09,0.6,94.0,M,46.0,M,,*74
22153000,$GPGGA,060913,5218.397733,N,00922.450799,E,1,09,0.6,94.0,M,46.0,M,,*74
22154000,$GPGGA,060914,5218.386105,N,00922.440229,E,1,09,0.6,94.0,M,46.0,M,,*7F
22154000,$GPGGA,060914,5218.386105,N,00922.440229,E,1,09,0.6,94.0,M,46.0,M,,*7F
22155000,$GPGGA,060915,5218.374650,N,00922.429920,E,1,09,0.6,94.0,M,46.0,M,,*79
22155000,$GPGGA,060915,5218.374650,N,00922.429920,E,1,09,0.6,94.0,M,46.0,M,,*79
22156000,$GPGGA,060916,5218.363127,N,00922.420139,E,1,09,0.6,94.0,M,46.0,M,,*72
22156000,$GPGGA,060916,5218.363127,N,00922.420139,E,1,09,0.6,94.0,M,46.0,M,,*72
22157000,$GPGGA,060917,5218.351703,N,00922.410007,E,1,09,0.6,94.0,M,46.0,M,,*7D
22157000,$GPGGA,060917,5218.351703,N,00922.410007,E,1,09,0.6,94.0,M,46.0,M,,*7D
22158000,$GPGGA,060918,5218.340396,N,00922.400033,E,1,09,0.6,93.0,M,46.0,M,,*7B
22158000,$GPGGA,060918,5218.340396,N,00922.400033,E,1,09,0.6,93.0,M,46.0,M,,*7B
22159000,$GPGGA,060919,5218.328957,N,00922.390193,E,1,09,0.6,93.0,M,46.0,M,,*76
22159000,$GPGGA,060919,5218.328957,N,00922.390193,E,1,09,0.6,93.0,M,46.0,M,,*76
22160000,$GPGGA,060920,5218.317600,N,00922.380175,E,1,09,0.6,93.0,M,46.0,M,,*74
22160000,$GPGGA,060920,5218.317600,N,00922.380175,E,1,09,0.6,93.0,M,46.0,M,,*74
22161000,$GPGGA,060921,5218.306061,N,00922.370174,E,1,09,0.6,93.0,M,46.0,M,,*7A
22161000,$GPGGA,060921,5218.306061,N,00922.370174,E,1,09,0.6,93.0,M,46.0,M,,*7A
22162000,$GPGGA,060922,5218.294532,N,00922.359448,E,1,09,0.6,92.0,M,46.0,M,,*70
22162000,$GPGGA,060922,5218.294532,N,00922.359448,E,1,09,0.6,92.0,M,46.0,M,,*70
22163000,$GPGGA,060923,5218.283080,N,00922.349059,E,1,09,0.6,92.0,M,46.0,M,,*7E
22163000,$GPGGA,060923,5218.283080,N,00922.349059,E,1,09,0.6,92.0,M,46.0,M,,*7E
22164000,$GPGGA,060924,5218.271231,N,00922.338413,E,1,09,0.6,91.0,M,46.0,M,,*73
22164000,$GPGGA,060924,5218.271231,N,00922.338413,E,1,09,0.6,91.0,M,46.0,M,,*73
22165000,$GPGGA,060925,5218.259430,N,00922.327998,E,1,09,0.6,92.0,M,46.0,M,,*7C
22165000,$GPGGA,060925,5218.259430,N,00922.327998,E,1,09,0.6,92.0,M,46.0,M,,*7C
22166000,$GPGGA,060926,5218.248149,N,00922.317595,E,1,09,0.6,91.0,M,46.0,M,,*75
22166000,$GPGGA,060926,5218.248149,N,00922.317595,E,1,09,0.6,91.0,M,46.0,M,,*75
22167000,$GPGGA,060927,5218.236659,N,00922.307261,E,1,09,0.6,91.0,M,46.0,M,,*76
22167000,$GPGGA,060927,5218.236659,N,00922.307261,E,1,09,0.6,91.0,M,46.0,M,,*76
22168000,$GPGGA,060928,5218.225078,N,00922.296805,E,1,09,0.6,91.0,M,46.0,M,,*7F
22168000,$GPGGA,060928,5218.225078,N,00922.296805,E,1,09,0.6,91.0,M,46.0,M,,*7F
22169000,$GPGGA,060929,5218.213703,N,00922.286281,E,1,09,0.6,91.0,M,46.0,M,,*77
22169000,$GPGGA,060929,5218.213703,N,00922.286281,E,1,09,0.6,91.0,M,46.0,M,,*77
22170000,$GPGGA,060930,5218.202165,N,00922.276183,E,1,09,0.6,91.0,M,46.0,M,,*77
22170000,$GPGGA,060930,5218.202165,N,00922.276183,E,1,09,0.6,91.0,M,46.0,M,,*77
22171000,$GPGGA,060931,5218.190725,N,00922.266045,E,1,09,0.6,91.0,M,46.0,M,,*76
22171000,$GPGGA,060931,5218.190725,N,00922.266045,E,1,09,0.6,91.0,M,46.0,M,,*76
22172000,$GPGGA,060932,5218.179162,N,00922.255948,E,1,09,0.6,91.0,M,46.0,M,,*73
22172000,$GPGGA,060932,5218.179162,N,00922.255948,E,1,09,0.6,91.0,M,46.0,M,,*73
22173000,$GPGGA,060933,5218.167598,N,00922.245880,E,1,09,0.6,91.0,M,46.0,M,,*78
22173000,$GPGGA,060933,5218.167598,N,00922.245880,E,1,09,0.6,91.0,M,46.0,M,,*78
22174000,$GPGGA,060934,5218.156033,N,00922.235749,E,1,09,0.6,91.0,M,46.0,M,,*74
22174000,$GPGGA,060934,5218.156033,N,00922.235749,E,1,09,0.6,91.0,M,46.0,M,,*74
22175000,$GPGGA,060935,5218.144478,N,00922.225889,E,1,09,0.7,90.0,M,46.0,M,,*7F
22175000,$GPGGA,060935,5218.144478,N,00922.225889,E,1,09,0.7,90.0,M,46.0,M,,*7F
22176000,$GPGGA,060936,5218.133067,N,00922.216191,E,1,09,0.7,90.0,M,46.0,M,,*76
22176000,$GPGGA,060936,5218.133067,N,00922.216191,E,1,09,0.7,90.0,M,46.0,M,,*76
22177000,$GPGGA,060937,5218.121727,N,00922.206077,E,1,09,0.6,90.0,M,46.0,M,,*7E
22177000,$GPGGA,060937,5218.121727,N,00922.206077,E,1,09,0.6,90.0,M,46.0,M,,*7E
22178000,$GPGGA,060938,5218.110017,N,00922.195682,E,1,09,0.7,90.0,M,46.0,M,,*73
22178000,$GPGGA,060938,5218.110017,N,00922.195682,E,1,09,0.7,90.0,M,46.0,M,,*73
22179000,$GPGGA,060939,5218.098214,N,00922.185377,E,1,09,0.7,90.0,M,46.0,M,,*7C
22179000,$GPGGA,060939,5218.098214,N,00922.185377,E,1,09,0.7,90.0,M,46.0,M,,*7C
22180000,$GPGGA,060940,5218.086518,N,00922.174939,E,1,09,0.6,90.0,M,46.0,M,,*79
22180000,$GPGGA,060940,5218.086518,N,00922.174939,E,1,09,0.6,90.0,M,46.0,M,,*79
22181000,$GPGGA,060941,5218.074639,N,00922.164305,E,1,09,0.6,91.0,M,46.0,M,,*70
22181000,$GPGGA,060941,5218.074639,N,00922.164305,E,1,09,0.6,91.0,M,46.0,M,,*70
22182000,$GPGGA,060942,5218.062723,N,00922.153682,E,1,09,0.6,91.0,M,46.0,M,,*70
22182000,$GPGGA,060942,5218.062723,N,00922.153682,E,1,09,0.6,91.0,M,46.0,M,,*70
22183000,$GPGGA,060943,5218.050829,N,00922.143133,E,1,09,0.6,91.0,M,46.0,M,,*79
22183000,$GPGGA,060943,5218.050829,N,00922.143133,E,1,09,0.6,91.0,M,46.0,M,,*79
22184000,$GPGGA,060944,5218.038702,N,00922.132420,E,1,09,0.6,91.0,M,46.0,M,,*77
22184000,$GPGGA,060944,5218.038702,N,00922.132420,E,1,09,0.6,91.0,M,46.0,M,,*77
22185000,$GPGGA,060945,5218.026948,N,00922.121717,E,1,09,0.6,91.0,M,46.0,M,,*7C
22185000,$GPGGA,060945,5218.026948,N,00922.121717,E,1,09,0.6,91.0,M,46.0,M,,*7C
22186000,$GPGGA,060946,5218.015099,N,00922.111119,E,1,09,0.6,91.0,M,46.0,M,,*71
22186000,$GPGGA,060946,5218.015099,N,00922.111119,E,1,09,0.6,91.0,M,46.0,M,,*71
22187000,$GPGGA,060947,5218.003661,N,00922.100872,E,1,09,0.6,91.0,M,46.0,M,,*72
22187000,$GPGGA,060947,5218.003661,N,00922.100872,E,1,09,0.6,91.0,M,46.0,M,,*72
22188000,$GPGGA,060948,5217.992231,N,00922.090738,E,1,09,0.6,91.0,M,46.0,M,,*7B
22188000,$GPGGA,060948,5217.992231,N,00922.090738,E,1,09,0.6,91.0,M,46.0,M,,*7B
22189000,$GPGGA,060949,5217.981109,N,00922.080675,E,1,09,0.6,91.0,M,46.0,M,,*79
22189000,$GPGGA,060949,5217.981109,N,00922.080675,E,1,09,0.6,91.0,M,46.0,M,,*79
22190000,$GPGGA,060950,5217.969954,N,00922.070905,E,1,09,0.6,91.0,M,46.0,M,,*70
22190000,$GPGGA,060950,5217.969954,N,00922.070905,E,1,09,0.6,91.0,M,46.0,M,,*70
22191000,$GPGGA,060951,5217.958884,N,00922.060985,E,1,09,0.7,90.0,M,46.0,M,,*76
22191000,$GPGGA,060951,5217.958884,N,00922.060985,E,1,09,0.7,90.0,M,46.0,M,,*76
22192000,$GPGGA,060952,5217.948112,N,00922.050867,E,1,09,0.6,91.0,M,46.0,M,,*7C
22192000,$GPGGA,060952,5217.948112,N,00922.050867,E,1,09,0.6,91.0,M,46.0,M,,*7C
22193000,$GPGGA,060953,5217.937419,N,00922.041312,E,1,09,0.6,91.0,M,46.0,M,,*72
22193000,$GPGGA,060953,5217.937419,N,00922.041312,E,1,09,0.6,91.0,M,46.0,M,,*72
22194000,$GPGGA,060954,5217.926616,N,00922.031683,E,1,09,0.6,91.0,M,46.0,M,,*72
22194000,$GPGGA,060954,5217.926616,N,00922.031683,E,1,09,0.6,91.0,M,46.0,M,,*72
22195000,$GPGGA,060955,5217.915823,N,00922.022422,E,1,09,0.6,91.0,M,46.0,M,,*70
22195000,$GPGGA,060955,5217.915823,N,00922.022422,E,1,09,0.6,91.0,M,46.0,M,,*70
22196000,$GPGGA,060956,5217.904782,N,00922.012778,E,1,09,0.7,91.0,M,46.0,M,,*79
22196000,$GPGGA,060956,5217.904782,N,00922.012778,E,1,09,0.7,91.0,M,46.0,M,,*79
22197000,$GPGGA,060957,5217.894118,N,00922.003006,E,1,09,0.6,90.0,M,46.0,M,,*7B
22197000,$GPGGA,060957,5217.894118,N,00922.003006,E,1,09,0.6,90.0,M,46.0,M,,*7B
22198000,$GPGGA,060958,5217.883357,N,00921.993180,E,1,09,0.6,90.0,M,46.0,M,,*77
22198000,$GPGGA,060958,5217.883357,N,00921.993180,E,1,09,0.6,90.0,M,46.0,M,,*77
22199000,$GPGGA,060959,5217.872576,N,00921.983381,E,1,09,0.7,91.0,M,46.0,M,,*7F
22199000,$GPGGA,060959,5217.872576,N,00921.983381,E,1,09,0.7,91.0,M,46.0,M,,*7F
22200000,$GPGGA,061000,5217.861604,N,00921.973796,E,1,09,0.6,91.0,M,46.0,M,,*73
22200000,$GPGGA,061000,5217.861604,N,00921.973796,E,1,09,0.6,91.0,M,46.0,M,,*73
22201000,$GPGGA,061001,5217.850853,N,00921.963945,E,1,09,0.6,91.0,M,46.0,M,,*7D
